{
  "farmacias": [
    {
      "id": 1,
      "name": "Farmautil",
      "urllogo": "assets/farmacias/farmacia-farmautil-centro.jpg",
      "phone": "(45) 3541-1414",
      "whatsapp": "+554535411414",
      "street": "Rua Primeiro de Maio, 610",
      "city": "Santa Terezinha de Itaipu",
      "zipcode": "85875000",
      "neighborhood": "Centro",
      "lat": "-25.441324",
      "lng": "-54.4020118,17z",
      "email": "farmautilbr@gmail.com"
    },
    {
      "id": 2,
      "name": "Farmautil",
      "urllogo": "assets/farmacias/farmacia-farmautil-santamonica.jpg",
      "phone": "(45) 3541-0958",
      "whatsapp": "+554535410958",
      "street": "Av das Rosas, 2880",
      "city": "Santa Terezinha de Itaipu",
      "zipcode": "85875000",
      "neighborhood": "Jardim Santa Monica",
      "lat": "-25.4451677",
      "lng": "-54.4163318,16.9z",
      "email": "farmautilsm@gmail.com"
    },
    {
      "id": 3,
      "name": "Farmavida",
      "urllogo": "assets/farmacias/farmacia-farma-vida.jpg",
      "phone": "(45) 3541-2334",
      "whatsapp": "+5545999025693",
      "street": "Av dos Estados, 2120",
      "city": "Santa Terezinha de Itaipu",
      "zipcode": "85875000",
      "neighborhood": "Centro",
      "lat": "-25.4417191",
      "lng": "-54.4065186,17.92z",
      "email": "farmavida@email.com"
    },
    {
      "id": 4,
      "name": "Farmaflora",
      "urllogo": "assets/farmacias/farmacia-farma-flora.jpg",
      "phone": "(45) 3541-1140",
      "whatsapp": "+554535411140",
      "street": "Rua João XXIII, 530",
      "city": "Santa Terezinha de Itaipu",
      "zipcode": "858750000",
      "neighborhood": "Centro",
      "lat": "-25.4397133",
      "lng": "-54.4017279,19.71z",
      "email": "farmaflora@email.com"
    },
    {
      "id": 5,
      "name": "Farmabelle",
      "urllogo": "https://maps.gstatic.com/tactile/pane/default_geocode-2x.png",
      "phone": "(45) 3541-2666",
      "whatsapp": "+554535412666",
      "street": "Av das Nações, 88",
      "city": "Santa Terezinha de Itaipu",
      "zipcode": "85875000",
      "neighborhood": "Centro",
      "lat": "-25.4429575",
      "lng": "-54.39826,19.71z",
      "email": "farmaciafarmabelle@yahoo.com.br"
    }
  ],
  "plantoes": [
    {
    "id": 40,
    "farmacia_id": 7,
    "datetimestart": "13/02/2021",
    "datetimeend": "20/02/2021",
    "name": "Clarifarma",
    "phone": "(45) 3541-2624",
    "urllogo": "https://maps.gstatic.com/tactile/pane/default_geocode-2x.png",
    "street": "Rua Rio de Janeiro, 1700",
    "neighborhood": "Parque dos Estados",
    "lat": "-25.4486069",
    "lng": "-54.4010717,17z",
    "now": "2021-02-09T21:04"
  },
  {
    "id": 41,
    "farmacia_id": 4,
    "datetimestart": "20/02/2021",
    "datetimeend": "27/02/2021",
    "name": "Farmaflora",
    "phone": "(45) 3541-1140",
    "urllogo": "assets/farmacias/farmacia-farma-flora.jpg",
    "street": "Rua João XXIII, 530",
    "neighborhood": "Centro",
    "lat": "-25.4397133",
    "lng": "-54.4017279,19.71z",
    "now": "2021-02-09T21:04"
  },
  {
    "id": 42,
    "farmacia_id": 12,
    "datetimestart": "27/02/2021",
    "datetimeend": "06/03/2021",
    "name": "Suprema Farma",
    "phone": "(45) 9 9909-9161",
    "urllogo": "assets/farmacias/farmacia-suprema-farma.jpg",
    "street": "Av dos Estados, 1942",
    "neighborhood": "Centro",
    "lat": "-25.4397897",
    "lng": "-54.4039189,19z",
    "now": "2021-02-09T21:04"
  },
  {
    "id": 43,
    "farmacia_id": 13,
    "datetimestart": "06/03/2021",
    "datetimeend": "13/03/2021",
    "name": "Biofarma",
    "phone": "(45) 3541-1235",
    "urllogo": "assets/farmacias/farmacia-bio-farma.jpg",
    "street": "Av Adolpho Lollato, 1840",
    "neighborhood": "Centro",
    "lat": "-25.444094",
    "lng": "-54.3999839,19.99z",
    "now": "2021-02-09T21:04"
  },
  {
    "id": 44,
    "farmacia_id": 14,
    "datetimestart": "13/03/2021",
    "datetimeend": "20/03/2021",
    "name": "Farma Vilmo",
    "phone": "(45) 3541-1149",
    "urllogo": "assets/farmacias/farmacia-farma-vilmo.jpg",
    "street": "Rua Primeiro de Maio, 149",
    "neighborhood": "Centro",
    "lat": "-25.4439472",
    "lng": "-54.4013689,19.99z",
    "now": "2021-02-09T21:04"
  }
  ]
}
